[{"name":"台南市安平區","county":"台南市","town":"安平區","lat":22.990141,"lon":120.165017,"type":"township"},{"name":"屏東縣長治鄉","county":"屏東縣","town":"長治鄉","lat":22.694615,"lon":120.555995,"type":"township"},{"name":"高雄市旗山區","county":"高雄市","town":"旗山區","lat":22.86505,"lon":120.475486,"type":"township"},{"name":"雲林縣褒忠鄉","county":"雲林縣","town":"褒忠鄉","lat":23.71619,"lon":120.311634,"type":"township"},{"name":"嘉義市東區","county":"嘉義市","town":"東區","lat":23.481769,"lon":120.470639,"type":"township"},{"name":"花蓮縣吉安鄉","county":"花蓮縣","town":"吉安鄉","lat":23.955569,"lon":121.564655,"type":"township"},{"name":"台南市六甲區","county":"台南市","town":"六甲區","lat":23.227321,"lon":120.380037,"type":"township"},{"name":"基隆市中山區","county":"基隆市","town":"中山區","lat":25.149974,"lon":121.730702,"type":"township"},{"name":"屏東縣滿州鄉","county":"屏東縣","town":"滿州鄉","lat":22.049381,"lon":120.843581,"type":"township"},{"name":"雲林縣口湖鄉","county":"雲林縣","town":"口湖鄉","lat":23.553715,"lon":120.141427,"type":"township"},{"name":"澎湖縣白沙鄉","county":"澎湖縣","town":"白沙鄉","lat":23.675475,"lon":119.595649,"type":"township"},{"name":"苗栗縣西湖鄉","county":"苗栗縣","town":"西湖鄉","lat":24.541612,"lon":120.761421,"type":"township"},{"name":"桃園縣大溪鎮","county":"桃園縣","town":"大溪鎮","lat":24.868072,"lon":121.296333,"type":"township"},{"name":"台北市文山區","county":"台北市","town":"文山區","lat":24.988684,"lon":121.573588,"type":"township"},{"name":"苗栗縣竹南鎮","county":"苗栗縣","town":"竹南鎮","lat":24.698708,"lon":120.87774,"type":"township"},{"name":"宜蘭縣大同鄉","county":"宜蘭縣","town":"大同鄉","lat":24.55164,"lon":121.504096,"type":"township"},{"name":"新北市八里區","county":"新北市","town":"八里區","lat":25.138226,"lon":121.413765,"type":"township"},{"name":"雲林縣莿桐鄉","county":"雲林縣","town":"莿桐鄉","lat":23.769806,"lon":120.529058,"type":"township"},{"name":"台中市沙鹿區","county":"台中市","town":"沙鹿區","lat":24.234324,"lon":120.583878,"type":"township"},{"name":"台南市關廟區","county":"台南市","town":"關廟區","lat":22.955845,"lon":120.334298,"type":"township"},{"name":"新竹市香山區","county":"新竹市","town":"香山區","lat":24.771131,"lon":120.923675,"type":"township"},{"name":"高雄市前鎮區(海)","county":"高雄市","town":"前鎮區(海)","lat":22.585522,"lon":120.299093,"type":"township"},{"name":"高雄市鼓山區","county":"高雄市","town":"鼓山區","lat":22.650251,"lon":120.274183,"type":"township"},{"name":"南投縣仁愛鄉","county":"南投縣","town":"仁愛鄉","lat":24.029017,"lon":121.144422,"type":"township"},{"name":"雲林縣元長鄉","county":"雲林縣","town":"元長鄉","lat":23.642492,"lon":120.327977,"type":"township"},{"name":"台南市大內區","county":"台南市","town":"大內區","lat":23.144884,"lon":120.398838,"type":"township"},{"name":"高雄市永安區","county":"高雄市","town":"永安區","lat":22.822302,"lon":120.228071,"type":"township"},{"name":"台中市大甲區","county":"台中市","town":"大甲區","lat":24.378349,"lon":120.635803,"type":"township"},{"name":"花蓮縣豐濱鄉","county":"花蓮縣","town":"豐濱鄉","lat":23.58533,"lon":121.494238,"type":"township"},{"name":"雲林縣四湖鄉","county":"雲林縣","town":"四湖鄉","lat":23.642125,"lon":120.206494,"type":"township"},{"name":"新竹縣峨眉鄉","county":"新竹縣","town":"峨眉鄉","lat":24.6782,"lon":121.011078,"type":"township"},{"name":"台南市麻豆區","county":"台南市","town":"麻豆區","lat":23.182541,"lon":120.241329,"type":"township"},{"name":"嘉義縣新港鄉","county":"嘉義縣","town":"新港鄉","lat":23.545876,"lon":120.348306,"type":"township"},{"name":"高雄市鹽埕區","county":"高雄市","town":"鹽埕區","lat":22.624299,"lon":120.284255,"type":"township"},{"name":"高雄市前鎮區","county":"高雄市","town":"前鎮區","lat":22.592752,"lon":120.314694,"type":"township"},{"name":"高雄市燕巢區","county":"高雄市","town":"燕巢區","lat":22.787755,"lon":120.370817,"type":"township"},{"name":"新北市深坑區","county":"新北市","town":"深坑區","lat":24.997783,"lon":121.620043,"type":"township"},{"name":"台南市將軍區","county":"台南市","town":"將軍區","lat":23.208396,"lon":120.127724,"type":"township"},{"name":"彰化縣秀水鄉","county":"彰化縣","town":"秀水鄉","lat":24.032564,"lon":120.50413,"type":"township"},{"name":"嘉義縣義竹鄉","county":"嘉義縣","town":"義竹鄉","lat":23.345819,"lon":120.223973,"type":"township"},{"name":"台南市西港區","county":"台南市","town":"西港區","lat":23.124978,"lon":120.200259,"type":"township"},{"name":"台南市七股區","county":"台南市","town":"七股區","lat":23.123323,"lon":120.100618,"type":"township"},{"name":"彰化縣員林鎮","county":"彰化縣","town":"員林鎮","lat":23.956574,"lon":120.593085,"type":"township"},{"name":"高雄市小港區(海)","county":"高雄市","town":"小港區(海)","lat":22.548134,"lon":120.331514,"type":"township"},{"name":"彰化縣和美鎮","county":"彰化縣","town":"和美鎮","lat":24.113864,"lon":120.51122,"type":"township"},{"name":"連江縣南竿鄉","county":"連江縣","town":"南竿鄉","lat":26.154191,"lon":119.94042,"type":"township"},{"name":"雲林縣大埤鄉","county":"雲林縣","town":"大埤鄉","lat":23.64566,"lon":120.425578,"type":"township"},{"name":"台中市清水區","county":"台中市","town":"清水區","lat":24.292128,"lon":120.58092,"type":"township"},{"name":"新北市石門區","county":"新北市","town":"石門區","lat":25.265286,"lon":121.568595,"type":"township"},{"name":"宜蘭縣壯圍鄉","county":"宜蘭縣","town":"壯圍鄉","lat":24.751946,"lon":121.801736,"type":"township"},{"name":"高雄市大樹區","county":"高雄市","town":"大樹區","lat":22.711072,"lon":120.425427,"type":"township"},{"name":"高雄市岡山區","county":"高雄市","town":"岡山區","lat":22.805116,"lon":120.297914,"type":"township"},{"name":"台南市龍崎區","county":"台南市","town":"龍崎區","lat":22.954886,"lon":120.386955,"type":"township"},{"name":"高雄市鳳山區","county":"高雄市","town":"鳳山區","lat":22.613852,"lon":120.355456,"type":"township"},{"name":"彰化縣田尾鄉","county":"彰化縣","town":"田尾鄉","lat":23.900627,"lon":120.522337,"type":"township"},{"name":"新北市永和區","county":"新北市","town":"永和區","lat":25.008207,"lon":121.516726,"type":"township"},{"name":"雲林縣二崙鄉","county":"雲林縣","town":"二崙鄉","lat":23.792618,"lon":120.396475,"type":"township"},{"name":"新北市萬里區","county":"新北市","town":"萬里區","lat":25.175831,"lon":121.64363,"type":"township"},{"name":"屏東縣恆春鎮","county":"屏東縣","town":"恆春鎮","lat":21.98539,"lon":120.763249,"type":"township"},{"name":"台南市鹽水區","county":"台南市","town":"鹽水區","lat":23.298048,"lon":120.248328,"type":"township"},{"name":"宜蘭縣員山鄉","county":"宜蘭縣","town":"員山鄉","lat":24.742099,"lon":121.661206,"type":"township"},{"name":"苗栗縣公館鄉","county":"苗栗縣","town":"公館鄉","lat":24.502581,"lon":120.850597,"type":"township"},{"name":"高雄市大寮區","county":"高雄市","town":"大寮區","lat":22.592902,"lon":120.411162,"type":"township"},{"name":"新北市土城區","county":"新北市","town":"土城區","lat":24.964352,"lon":121.445724,"type":"township"},{"name":"高雄市大社區","county":"高雄市","town":"大社區","lat":22.739894,"lon":120.370819,"type":"township"},{"name":"新竹縣新埔鎮","county":"新竹縣","town":"新埔鎮","lat":24.841428,"lon":121.09399,"type":"township"},{"name":"桃園縣復興鄉","county":"桃園縣","town":"復興鄉","lat":24.729622,"lon":121.375429,"type":"township"},{"name":"台中市大雅區","county":"台中市","town":"大雅區","lat":24.227114,"lon":120.641194,"type":"township"},{"name":"台南市白河區","county":"台南市","town":"白河區","lat":23.351387,"lon":120.457865,"type":"township"},{"name":"宜蘭縣頭城鎮","county":"宜蘭縣","town":"頭城鎮","lat":24.900881,"lon":121.845792,"type":"township"},{"name":"台中市中區","county":"台中市","town":"中區","lat":24.141758,"lon":120.680607,"type":"township"},{"name":"基隆市仁愛區(海)","county":"基隆市","town":"仁愛區(海)","lat":25.131314,"lon":121.741632,"type":"township"},{"name":"台北市南港區","county":"台北市","town":"南港區","lat":25.036115,"lon":121.609736,"type":"township"},{"name":"嘉義縣大林鎮","county":"嘉義縣","town":"大林鎮","lat":23.598972,"lon":120.4808,"type":"township"},{"name":"屏東縣屏東市","county":"屏東縣","town":"屏東市","lat":22.664802,"lon":120.480013,"type":"township"},{"name":"高雄市阿蓮區","county":"高雄市","town":"阿蓮區","lat":22.870288,"lon":120.321115,"type":"township"},{"name":"台中市西區","county":"台中市","town":"西區","lat":24.143985,"lon":120.664766,"type":"township"},{"name":"台東縣海端鄉","county":"台東縣","town":"海端鄉","lat":23.114893,"lon":121.017589,"type":"township"},{"name":"桃園縣中壢市","county":"桃園縣","town":"中壢市","lat":24.980033,"lon":121.214712,"type":"township"},{"name":"新竹縣北埔鄉","county":"新竹縣","town":"北埔鄉","lat":24.672167,"lon":121.064272,"type":"township"},{"name":"新北市雙溪區","county":"新北市","town":"雙溪區","lat":24.997114,"lon":121.832968,"type":"township"},{"name":"台中市新社區","county":"台中市","town":"新社區","lat":24.177781,"lon":120.83131,"type":"township"},{"name":"高雄市美濃區","county":"高雄市","town":"美濃區","lat":22.900128,"lon":120.563487,"type":"township"},{"name":"高雄市左營區","county":"高雄市","town":"左營區","lat":22.684015,"lon":120.295179,"type":"township"},{"name":"新北市石碇區","county":"新北市","town":"石碇區","lat":24.947262,"lon":121.647226,"type":"township"},{"name":"台東縣池上鄉","county":"台東縣","town":"池上鄉","lat":23.09258,"lon":121.218443,"type":"township"},{"name":"屏東縣九如鄉","county":"屏東縣","town":"九如鄉","lat":22.731732,"lon":120.484521,"type":"township"},{"name":"台中市和平區","county":"台中市","town":"和平區","lat":24.276246,"lon":121.140285,"type":"township"},{"name":"苗栗縣南庄鄉","county":"苗栗縣","town":"南庄鄉","lat":24.566178,"lon":121.017469,"type":"township"},{"name":"高雄市內門區","county":"高雄市","town":"內門區","lat":22.956758,"lon":120.471953,"type":"township"},{"name":"屏東縣南州鄉","county":"屏東縣","town":"南州鄉","lat":22.479869,"lon":120.51807,"type":"township"},{"name":"雲林縣西螺鎮","county":"雲林縣","town":"西螺鎮","lat":23.779485,"lon":120.458095,"type":"township"},{"name":"彰化縣線西鄉","county":"彰化縣","town":"線西鄉","lat":24.131647,"lon":120.452179,"type":"township"},{"name":"台南市東山區","county":"台南市","town":"東山區","lat":23.27838,"lon":120.444127,"type":"township"},{"name":"彰化縣溪州鄉","county":"彰化縣","town":"溪州鄉","lat":23.827317,"lon":120.522503,"type":"township"},{"name":"基隆市七堵區","county":"基隆市","town":"七堵區","lat":25.109731,"lon":121.683578,"type":"township"},{"name":"屏東縣霧台鄉","county":"屏東縣","town":"霧台鄉","lat":22.759987,"lon":120.800827,"type":"township"},{"name":"高雄市仁武區","county":"高雄市","town":"仁武區","lat":22.701267,"lon":120.360547,"type":"township"},{"name":"雲林縣麥寮鄉","county":"雲林縣","town":"麥寮鄉","lat":23.78823,"lon":120.243553,"type":"township"},{"name":"屏東縣瑪家鄉","county":"屏東縣","town":"瑪家鄉","lat":22.671145,"lon":120.679934,"type":"township"},{"name":"新竹市東區","county":"新竹市","town":"東區","lat":24.790368,"lon":120.992751,"type":"township"},{"name":"高雄市梓官區","county":"高雄市","town":"梓官區","lat":22.748266,"lon":120.259422,"type":"township"},{"name":"澎湖縣望安鄉","county":"澎湖縣","town":"望安鄉","lat":23.343038,"lon":119.515469,"type":"township"},{"name":"台北市士林區","county":"台北市","town":"士林區","lat":25.125571,"lon":121.55078,"type":"township"},{"name":"台中市梧棲區","county":"台中市","town":"梧棲區","lat":24.245593,"lon":120.530142,"type":"township"},{"name":"南投縣信義鄉","county":"南投縣","town":"信義鄉","lat":23.65558,"lon":121.021341,"type":"township"},{"name":"台北市內湖區","county":"台北市","town":"內湖區","lat":25.083813,"lon":121.592364,"type":"township"},{"name":"彰化縣北斗鎮","county":"彰化縣","town":"北斗鎮","lat":23.867642,"lon":120.533167,"type":"township"},{"name":"嘉義縣阿里山鄉","county":"嘉義縣","town":"阿里山鄉","lat":23.440882,"lon":120.75965,"type":"township"},{"name":"金門縣烈嶼鄉","county":"金門縣","town":"烈嶼鄉","lat":24.430792,"lon":118.241129,"type":"township"},{"name":"高雄市苓雅區","county":"高雄市","town":"苓雅區","lat":22.623642,"lon":120.320922,"type":"township"},{"name":"彰化縣福興鄉","county":"彰化縣","town":"福興鄉","lat":24.030279,"lon":120.431069,"type":"township"},{"name":"台中市大里區","county":"台中市","town":"大里區","lat":24.09583,"lon":120.692635,"type":"township"},{"name":"新北市汐止區","county":"新北市","town":"汐止區","lat":25.073425,"lon":121.654668,"type":"township"},{"name":"苗栗縣後龍鎮","county":"苗栗縣","town":"後龍鎮","lat":24.615706,"lon":120.78122,"type":"township"},{"name":"台中市后里區","county":"台中市","town":"后里區","lat":24.309698,"lon":120.714624,"type":"township"},{"name":"台東縣長濱鄉","county":"台東縣","town":"長濱鄉","lat":23.334887,"lon":121.42618,"type":"township"},{"name":"彰化縣二林鎮","county":"彰化縣","town":"二林鎮","lat":23.916281,"lon":120.404249,"type":"township"},{"name":"新竹市北區","county":"新竹市","town":"北區","lat":24.82278,"lon":120.949123,"type":"township"},{"name":"花蓮縣花蓮市","county":"花蓮縣","town":"花蓮市","lat":23.997106,"lon":121.607127,"type":"township"},{"name":"台中市南屯區","county":"台中市","town":"南屯區","lat":24.141726,"lon":120.617748,"type":"township"},{"name":"新竹縣新豐鄉","county":"新竹縣","town":"新豐鄉","lat":24.907401,"lon":120.995607,"type":"township"},{"name":"台中市霧峰區","county":"台中市","town":"霧峰區","lat":24.0434,"lon":120.720206,"type":"township"},{"name":"屏東縣林邊鄉","county":"屏東縣","town":"林邊鄉","lat":22.441483,"lon":120.512524,"type":"township"},{"name":"台南市後壁區","county":"台南市","town":"後壁區","lat":23.362075,"lon":120.34853,"type":"township"},{"name":"南投縣埔里鎮","county":"南投縣","town":"埔里鎮","lat":23.979009,"lon":120.962526,"type":"township"},{"name":"宜蘭縣五結鄉","county":"宜蘭縣","town":"五結鄉","lat":24.688988,"lon":121.805805,"type":"township"},{"name":"台北市北投區","county":"台北市","town":"北投區","lat":25.14817,"lon":121.517669,"type":"township"},{"name":"桃園縣觀音鄉","county":"桃園縣","town":"觀音鄉","lat":25.026807,"lon":121.115497,"type":"township"},{"name":"屏東縣三地門鄉","county":"屏東縣","town":"三地門鄉","lat":22.797951,"lon":120.686538,"type":"township"},{"name":"台北市中山區","county":"台北市","town":"中山區","lat":25.069806,"lon":121.538144,"type":"township"},{"name":"苗栗縣銅鑼鄉","county":"苗栗縣","town":"銅鑼鄉","lat":24.456002,"lon":120.799206,"type":"township"},{"name":"連江縣北竿鄉","county":"連江縣","town":"北竿鄉","lat":26.229934,"lon":119.995415,"type":"township"},{"name":"苗栗縣苑裡鎮","county":"苗栗縣","town":"苑裡鎮","lat":24.411099,"lon":120.688222,"type":"township"},{"name":"新北市新店區","county":"新北市","town":"新店區","lat":24.930496,"lon":121.531641,"type":"township"},{"name":"高雄市路竹區","county":"高雄市","town":"路竹區","lat":22.857299,"lon":120.266009,"type":"township"},{"name":"台南市左鎮區","county":"台南市","town":"左鎮區","lat":23.026112,"lon":120.412403,"type":"township"},{"name":"桃園縣平鎮市","county":"桃園縣","town":"平鎮市","lat":24.921274,"lon":121.213995,"type":"township"},{"name":"新北市淡水區","county":"新北市","town":"淡水區","lat":25.189177,"lon":121.463639,"type":"township"},{"name":"屏東縣牡丹鄉","county":"屏東縣","town":"牡丹鄉","lat":22.155603,"lon":120.817376,"type":"township"},{"name":"台中市東勢區","county":"台中市","town":"東勢區","lat":24.249614,"lon":120.840133,"type":"township"},{"name":"台南市佳里區","county":"台南市","town":"佳里區","lat":23.167052,"lon":120.178619,"type":"township"},{"name":"台東縣卑南鄉","county":"台東縣","town":"卑南鄉","lat":22.765023,"lon":121.001622,"type":"township"},{"name":"台北市中正區","county":"台北市","town":"中正區","lat":25.032507,"lon":121.519867,"type":"township"},{"name":"屏東縣泰武鄉","county":"屏東縣","town":"泰武鄉","lat":22.604155,"lon":120.691806,"type":"township"},{"name":"彰化縣溪湖鎮","county":"彰化縣","town":"溪湖鎮","lat":23.951781,"lon":120.483189,"type":"township"},{"name":"台南市安南區","county":"台南市","town":"安南區","lat":23.04875,"lon":120.152643,"type":"township"},{"name":"花蓮縣壽豐鄉","county":"花蓮縣","town":"壽豐鄉","lat":23.84471,"lon":121.534144,"type":"township"},{"name":"台東縣東河鄉","county":"台東縣","town":"東河鄉","lat":22.980185,"lon":121.251809,"type":"township"},{"name":"宜蘭縣三星鄉","county":"宜蘭縣","town":"三星鄉","lat":24.667823,"lon":121.664256,"type":"township"},{"name":"屏東縣枋山鄉","county":"屏東縣","town":"枋山鄉","lat":22.270962,"lon":120.656749,"type":"township"},{"name":"高雄市旗津區(海)","county":"高雄市","town":"旗津區(海)","lat":22.590504,"lon":120.289274,"type":"township"},{"name":"雲林縣虎尾鎮","county":"雲林縣","town":"虎尾鎮","lat":23.716679,"lon":120.429325,"type":"township"},{"name":"台南市山上區","county":"台南市","town":"山上區","lat":23.096952,"lon":120.370995,"type":"township"},{"name":"嘉義縣布袋鎮","county":"嘉義縣","town":"布袋鎮","lat":23.375002,"lon":120.177784,"type":"township"},{"name":"屏東縣萬丹鄉","county":"屏東縣","town":"萬丹鄉","lat":22.588561,"lon":120.476633,"type":"township"},{"name":"苗栗縣泰安鄉","county":"苗栗縣","town":"泰安鄉","lat":24.419336,"lon":121.06817,"type":"township"},{"name":"宜蘭縣礁溪鄉","county":"宜蘭縣","town":"礁溪鄉","lat":24.811548,"lon":121.73464,"type":"township"},{"name":"宜蘭縣南澳鄉","county":"宜蘭縣","town":"南澳鄉","lat":24.448752,"lon":121.656077,"type":"township"},{"name":"高雄市甲仙區","county":"高雄市","town":"甲仙區","lat":23.116629,"lon":120.623317,"type":"township"},{"name":"屏東縣鹽埔鄉","county":"屏東縣","town":"鹽埔鄉","lat":22.742601,"lon":120.569406,"type":"township"},{"name":"新北市鶯歌區","county":"新北市","town":"鶯歌區","lat":24.956725,"lon":121.346618,"type":"township"},{"name":"桃園縣桃園市","county":"桃園縣","town":"桃園市","lat":25.000498,"lon":121.299652,"type":"township"},{"name":"新竹縣芎林鄉","county":"新竹縣","town":"芎林鄉","lat":24.765802,"lon":121.10463,"type":"township"},{"name":"花蓮縣萬榮鄉","county":"花蓮縣","town":"萬榮鄉","lat":23.727883,"lon":121.318952,"type":"township"},{"name":"嘉義縣東石鄉","county":"嘉義縣","town":"東石鄉","lat":23.468719,"lon":120.173893,"type":"township"},{"name":"台南市下營區","county":"台南市","town":"下營區","lat":23.231099,"lon":120.264862,"type":"township"},{"name":"屏東縣高樹鄉","county":"屏東縣","town":"高樹鄉","lat":22.809996,"lon":120.601781,"type":"township"},{"name":"基隆市安樂區","county":"基隆市","town":"安樂區","lat":25.141505,"lon":121.707696,"type":"township"},{"name":"新竹縣竹東鎮","county":"新竹縣","town":"竹東鎮","lat":24.730859,"lon":121.075345,"type":"township"},{"name":"新北市中和區","county":"新北市","town":"中和區","lat":24.990983,"lon":121.493659,"type":"township"},{"name":"桃園縣八德市","county":"桃園縣","town":"八德市","lat":24.949785,"lon":121.291302,"type":"township"},{"name":"台東縣金峰鄉","county":"台東縣","town":"金峰鄉","lat":22.581695,"lon":120.857057,"type":"township"},{"name":"台南市善化區","county":"台南市","town":"善化區","lat":23.140369,"lon":120.298848,"type":"township"},{"name":"屏東縣春日鄉","county":"屏東縣","town":"春日鄉","lat":22.404067,"lon":120.697595,"type":"township"},{"name":"台南市新市區","county":"台南市","town":"新市區","lat":23.083252,"lon":120.292415,"type":"township"},{"name":"金門縣金寧鄉","county":"金門縣","town":"金寧鄉","lat":24.453361,"lon":118.330592,"type":"township"},{"name":"台東縣鹿野鄉","county":"台東縣","town":"鹿野鄉","lat":22.951344,"lon":121.156042,"type":"township"},{"name":"花蓮縣新城鄉","county":"花蓮縣","town":"新城鄉","lat":24.055911,"lon":121.613784,"type":"township"},{"name":"嘉義市西區","county":"嘉義市","town":"西區","lat":23.479218,"lon":120.424888,"type":"township"},{"name":"雲林縣林內鄉","county":"雲林縣","town":"林內鄉","lat":23.755791,"lon":120.615513,"type":"township"},{"name":"苗栗縣頭份鎮","county":"苗栗縣","town":"頭份鎮","lat":24.676366,"lon":120.918951,"type":"township"},{"name":"澎湖縣湖西鄉","county":"澎湖縣","town":"湖西鄉","lat":23.578287,"lon":119.645678,"type":"township"},{"name":"嘉義縣中埔鄉","county":"嘉義縣","town":"中埔鄉","lat":23.404159,"lon":120.536541,"type":"township"},{"name":"苗栗縣通霄鎮","county":"苗栗縣","town":"通霄鎮","lat":24.485129,"lon":120.714645,"type":"township"},{"name":"台東縣關山鎮","county":"台東縣","town":"關山鎮","lat":23.037898,"lon":121.176616,"type":"township"},{"name":"花蓮縣玉里鎮","county":"花蓮縣","town":"玉里鎮","lat":23.371545,"lon":121.360459,"type":"township"},{"name":"屏東縣潮州鎮","county":"屏東縣","town":"潮州鎮","lat":22.536493,"lon":120.55682,"type":"township"},{"name":"嘉義縣番路鄉","county":"嘉義縣","town":"番路鄉","lat":23.427731,"lon":120.607537,"type":"township"},{"name":"台中市外埔區","county":"台中市","town":"外埔區","lat":24.335582,"lon":120.665077,"type":"township"},{"name":"彰化縣社頭鄉","county":"彰化縣","town":"社頭鄉","lat":23.905434,"lon":120.602179,"type":"township"},{"name":"屏東縣車城鄉","county":"屏東縣","town":"車城鄉","lat":22.079226,"lon":120.743272,"type":"township"},{"name":"高雄市三民區","county":"高雄市","town":"三民區","lat":23.208528,"lon":120.685045,"type":"township"},{"name":"台南市永康區","county":"台南市","town":"永康區","lat":23.027353,"lon":120.254302,"type":"township"},{"name":"基隆市中山區(海)","county":"基隆市","town":"中山區(海)","lat":25.147001,"lon":121.749762,"type":"township"},{"name":"台南市新化區","county":"台南市","town":"新化區","lat":23.034005,"lon":120.335815,"type":"township"},{"name":"屏東縣萬巒鄉","county":"屏東縣","town":"萬巒鄉","lat":22.582407,"lon":120.601829,"type":"township"},{"name":"南投縣國姓鄉","county":"南投縣","town":"國姓鄉","lat":24.031451,"lon":120.867618,"type":"township"},{"name":"屏東縣新園鄉","county":"屏東縣","town":"新園鄉","lat":22.517254,"lon":120.450161,"type":"township"},{"name":"彰化縣田中鎮","county":"彰化縣","town":"田中鎮","lat":23.857309,"lon":120.590358,"type":"township"},{"name":"新北市三峽區","county":"新北市","town":"三峽區","lat":24.882201,"lon":121.416288,"type":"township"},{"name":"台南市安平區(海)","county":"台南市","town":"安平區(海)","lat":22.968895,"lon":120.159022,"type":"township"},{"name":"彰化縣花壇鄉","county":"彰化縣","town":"花壇鄉","lat":24.030138,"lon":120.559777,"type":"township"},{"name":"苗栗縣頭屋鄉","county":"苗栗縣","town":"頭屋鄉","lat":24.573536,"lon":120.882667,"type":"township"},{"name":"屏東縣枋寮鄉","county":"屏東縣","town":"枋寮鄉","lat":22.403411,"lon":120.597595,"type":"township"},{"name":"彰化縣二水鄉","county":"彰化縣","town":"二水鄉","lat":23.80931,"lon":120.628599,"type":"township"},{"name":"新北市新莊區","county":"新北市","town":"新莊區","lat":25.035932,"lon":121.436742,"type":"township"},{"name":"高雄市小港區","county":"高雄市","town":"小港區","lat":22.551462,"lon":120.359278,"type":"township"},{"name":"新北市烏來區","county":"新北市","town":"烏來區","lat":24.788355,"lon":121.541485,"type":"township"},{"name":"南投縣南投市","county":"南投縣","town":"南投市","lat":23.921809,"lon":120.678777,"type":"township"},{"name":"台南市歸仁區","county":"台南市","town":"歸仁區","lat":22.946855,"lon":120.293082,"type":"township"},{"name":"台東縣達仁鄉","county":"台東縣","town":"達仁鄉","lat":22.384411,"lon":120.835531,"type":"township"},{"name":"台北市大同區","county":"台北市","town":"大同區","lat":25.063528,"lon":121.513026,"type":"township"},{"name":"台中市北區","county":"台中市","town":"北區","lat":24.158713,"lon":120.680961,"type":"township"},{"name":"高雄市楠梓區","county":"高雄市","town":"楠梓區","lat":22.721155,"lon":120.300778,"type":"township"},{"name":"台南市學甲區","county":"台南市","town":"學甲區","lat":23.252255,"lon":120.184211,"type":"township"},{"name":"雲林縣東勢鄉","county":"雲林縣","town":"東勢鄉","lat":23.696186,"lon":120.256443,"type":"township"},{"name":"連江縣莒光鄉","county":"連江縣","town":"莒光鄉","lat":25.966906,"lon":119.962108,"type":"township"},{"name":"台東縣太麻里鄉","county":"台東縣","town":"太麻里鄉","lat":22.591086,"lon":120.979795,"type":"township"},{"name":"高雄市茂林區","county":"高雄市","town":"茂林區","lat":22.920007,"lon":120.752387,"type":"township"},{"name":"雲林縣斗南鎮","county":"雲林縣","town":"斗南鎮","lat":23.670731,"lon":120.482649,"type":"township"},{"name":"屏東縣里港鄉","county":"屏東縣","town":"里港鄉","lat":22.798612,"lon":120.506144,"type":"township"},{"name":"新北市蘆洲區","county":"新北市","town":"蘆洲區","lat":25.089374,"lon":121.471231,"type":"township"},{"name":"台東縣台東市","county":"台東縣","town":"台東市","lat":22.75174,"lon":121.110373,"type":"township"},{"name":"台南市楠西區","county":"台南市","town":"楠西區","lat":23.178928,"lon":120.517046,"type":"township"},{"name":"嘉義縣溪口鄉","county":"嘉義縣","town":"溪口鄉","lat":23.593594,"lon":120.401046,"type":"township"},{"name":"台中市梧棲鎮(海區","county":"台中市","town":"梧棲鎮(海區","lat":24.260911,"lon":120.503028,"type":"township"},{"name":"新竹縣五峰鄉","county":"新竹縣","town":"五峰鄉","lat":24.578154,"lon":121.138949,"type":"township"},{"name":"高雄市鳥松區","county":"高雄市","town":"鳥松區","lat":22.662552,"lon":120.372797,"type":"township"},{"name":"台中市太平區","county":"台中市","town":"太平區","lat":24.114852,"lon":120.773425,"type":"township"},{"name":"苗栗縣獅潭鄉","county":"苗栗縣","town":"獅潭鄉","lat":24.519878,"lon":120.920683,"type":"township"},{"name":"彰化縣埔鹽鄉","county":"彰化縣","town":"埔鹽鄉","lat":23.992109,"lon":120.459479,"type":"township"},{"name":"雲林縣土庫鎮","county":"雲林縣","town":"土庫鎮","lat":23.691174,"lon":120.364744,"type":"township"},{"name":"台中市石岡區","county":"台中市","town":"石岡區","lat":24.26501,"lon":120.790388,"type":"township"},{"name":"台南市東區","county":"台南市","town":"東區","lat":22.981842,"lon":120.228209,"type":"township"},{"name":"彰化縣伸港鄉","county":"彰化縣","town":"伸港鄉","lat":24.163737,"lon":120.486467,"type":"township"},{"name":"金門縣金城鎮","county":"金門縣","town":"金城鎮","lat":24.411836,"lon":118.31521,"type":"township"},{"name":"南投縣水里鄉","county":"南投縣","town":"水里鄉","lat":23.796218,"lon":120.862278,"type":"township"},{"name":"台東縣延平鄉","county":"台東縣","town":"延平鄉","lat":22.903503,"lon":120.983207,"type":"township"},{"name":"雲林縣斗六市","county":"雲林縣","town":"斗六市","lat":23.706585,"lon":120.560019,"type":"township"},{"name":"新竹縣橫山鄉","county":"新竹縣","town":"橫山鄉","lat":24.707901,"lon":121.146973,"type":"township"},{"name":"高雄市六龜區","county":"高雄市","town":"六龜區","lat":23.012058,"lon":120.658594,"type":"township"},{"name":"台中市南區","county":"台中市","town":"南區","lat":24.121214,"lon":120.66463,"type":"township"},{"name":"宜蘭縣羅東鎮","county":"宜蘭縣","town":"羅東鎮","lat":24.678959,"lon":121.770153,"type":"township"},{"name":"台中市神岡區","county":"台中市","town":"神岡區","lat":24.265754,"lon":120.673342,"type":"township"},{"name":"南投縣竹山鎮","county":"南投縣","town":"竹山鎮","lat":23.698151,"lon":120.710079,"type":"township"},{"name":"台南市柳營區","county":"台南市","town":"柳營區","lat":23.268929,"lon":120.354935,"type":"township"},{"name":"花蓮縣鳳林鎮","county":"花蓮縣","town":"鳳林鎮","lat":23.743348,"lon":121.469875,"type":"township"},{"name":"新北市金山區","county":"新北市","town":"金山區","lat":25.217252,"lon":121.604777,"type":"township"},{"name":"高雄市彌陀區","county":"高雄市","town":"彌陀區","lat":22.779502,"lon":120.239478,"type":"township"},{"name":"嘉義縣水上鄉","county":"嘉義縣","town":"水上鄉","lat":23.429172,"lon":120.41475,"type":"township"},{"name":"台南市南區","county":"台南市","town":"南區","lat":22.955671,"lon":120.190398,"type":"township"},{"name":"桃園縣新屋鄉","county":"桃園縣","town":"新屋鄉","lat":24.972889,"lon":121.067755,"type":"township"},{"name":"南投縣鹿谷鄉","county":"南投縣","town":"鹿谷鄉","lat":23.737845,"lon":120.781512,"type":"township"},{"name":"基隆市仁愛區","county":"基隆市","town":"仁愛區","lat":25.119562,"lon":121.743385,"type":"township"},{"name":"桃園縣龍潭鄉","county":"桃園縣","town":"龍潭鄉","lat":24.850744,"lon":121.211779,"type":"township"},{"name":"台南市中西區","county":"台南市","town":"中西區","lat":22.995998,"lon":120.192896,"type":"township"},{"name":"雲林縣水林鄉","county":"雲林縣","town":"水林鄉","lat":23.561693,"lon":120.235301,"type":"township"},{"name":"桃園縣楊梅鎮","county":"桃園縣","town":"楊梅鎮","lat":24.918299,"lon":121.129164,"type":"township"},{"name":"台南市安定區","county":"台南市","town":"安定區","lat":23.099804,"lon":120.229646,"type":"township"},{"name":"新北市樹林區","county":"新北市","town":"樹林區","lat":24.979808,"lon":121.401024,"type":"township"},{"name":"高雄市桃源區","county":"高雄市","town":"桃源區","lat":23.225128,"lon":120.852457,"type":"township"},{"name":"連江縣東引鄉","county":"連江縣","town":"東引鄉","lat":26.363611,"lon":120.473878,"type":"township"},{"name":"新北市五股區","county":"新北市","town":"五股區","lat":25.09625,"lon":121.433199,"type":"township"},{"name":"嘉義縣梅山鄉","county":"嘉義縣","town":"梅山鄉","lat":23.555415,"lon":120.638749,"type":"township"},{"name":"新竹縣關西鎮","county":"新竹縣","town":"關西鎮","lat":24.785237,"lon":121.186607,"type":"township"},{"name":"屏東縣來義鄉","county":"屏東縣","town":"來義鄉","lat":22.501643,"lon":120.685735,"type":"township"},{"name":"高雄市新興區","county":"高雄市","town":"新興區","lat":22.629989,"lon":120.306751,"type":"township"},{"name":"彰化縣竹塘鄉","county":"彰化縣","town":"竹塘鄉","lat":23.85065,"lon":120.413683,"type":"township"},{"name":"花蓮縣秀林鄉","county":"花蓮縣","town":"秀林鄉","lat":24.123932,"lon":121.480818,"type":"township"},{"name":"新北市瑞芳區","county":"新北市","town":"瑞芳區","lat":25.098242,"lon":121.823176,"type":"township"},{"name":"苗栗縣造橋鄉","county":"苗栗縣","town":"造橋鄉","lat":24.624893,"lon":120.869565,"type":"township"},{"name":"屏東縣麟洛鄉","county":"屏東縣","town":"麟洛鄉","lat":22.648829,"lon":120.529984,"type":"township"},{"name":"雲林縣古坑鄉","county":"雲林縣","town":"古坑鄉","lat":23.625521,"lon":120.611736,"type":"township"},{"name":"彰化縣永靖鄉","county":"彰化縣","town":"永靖鄉","lat":23.921463,"lon":120.541616,"type":"township"},{"name":"南投縣草屯鎮","county":"南投縣","town":"草屯鎮","lat":23.983278,"lon":120.732628,"type":"township"},{"name":"彰化縣埔心鄉","county":"彰化縣","town":"埔心鄉","lat":23.952843,"lon":120.534293,"type":"township"},{"name":"花蓮縣瑞穗鄉","county":"花蓮縣","town":"瑞穗鄉","lat":23.51571,"lon":121.407336,"type":"township"},{"name":"基隆市中正區","county":"基隆市","town":"中正區","lat":25.407752,"lon":122.416491,"type":"township"},{"name":"基隆市信義區","county":"基隆市","town":"信義區","lat":25.125878,"lon":121.772584,"type":"township"},{"name":"高雄市湖內區","county":"高雄市","town":"湖內區","lat":22.893306,"lon":120.225958,"type":"township"},{"name":"台東縣成功鎮","county":"台東縣","town":"成功鎮","lat":23.126752,"lon":121.353803,"type":"township"},{"name":"屏東縣崁頂鄉","county":"屏東縣","town":"崁頂鄉","lat":22.515345,"lon":120.500675,"type":"township"},{"name":"南投縣集集鎮","county":"南投縣","town":"集集鎮","lat":23.83709,"lon":120.785426,"type":"township"},{"name":"雲林縣崙背鄉","county":"雲林縣","town":"崙背鄉","lat":23.778561,"lon":120.333994,"type":"township"},{"name":"台北市大安區","county":"台北市","town":"大安區","lat":25.026876,"lon":121.543425,"type":"township"},{"name":"屏東縣佳冬鄉","county":"屏東縣","town":"佳冬鄉","lat":22.429871,"lon":120.547626,"type":"township"},{"name":"台南市玉井區","county":"台南市","town":"玉井區","lat":23.114876,"lon":120.46098,"type":"township"},{"name":"嘉義縣太保市","county":"嘉義縣","town":"太保市","lat":23.472982,"lon":120.344027,"type":"township"},{"name":"新北市板橋區","county":"新北市","town":"板橋區","lat":25.011967,"lon":121.457956,"type":"township"},{"name":"高雄市橋頭區","county":"高雄市","town":"橋頭區","lat":22.752581,"lon":120.300673,"type":"township"},{"name":"台南市北門區","county":"台南市","town":"北門區","lat":23.27783,"lon":120.126266,"type":"township"},{"name":"苗栗縣大湖鄉","county":"苗栗縣","town":"大湖鄉","lat":24.393679,"lon":120.863131,"type":"township"},{"name":"台中市大肚區","county":"台中市","town":"大肚區","lat":24.144743,"lon":120.554339,"type":"township"},{"name":"新北市林口區","county":"新北市","town":"林口區","lat":25.100184,"lon":121.352708,"type":"township"},{"name":"台北市松山區","county":"台北市","town":"松山區","lat":25.060097,"lon":121.557569,"type":"township"},{"name":"新北市泰山區","county":"新北市","town":"泰山區","lat":25.055598,"lon":121.416265,"type":"township"},{"name":"基隆市中正區(海)","county":"基隆市","town":"中正區(海)","lat":25.149554,"lon":121.756837,"type":"township"},{"name":"台南市新營區","county":"台南市","town":"新營區","lat":23.301585,"lon":120.295433,"type":"township"},{"name":"台北市信義區","county":"台北市","town":"信義區","lat":25.030728,"lon":121.57165,"type":"township"},{"name":"台中市東區","county":"台中市","town":"東區","lat":24.137406,"lon":120.697097,"type":"township"},{"name":"苗栗縣卓蘭鎮","county":"苗栗縣","town":"卓蘭鎮","lat":24.325179,"lon":120.856201,"type":"township"},{"name":"彰化縣大城鄉","county":"彰化縣","town":"大城鄉","lat":23.850753,"lon":120.311348,"type":"township"},{"name":"台中市潭子區","county":"台中市","town":"潭子區","lat":24.211785,"lon":120.711005,"type":"township"},{"name":"台中市龍井區","county":"台中市","town":"龍井區","lat":24.200695,"lon":120.528382,"type":"township"},{"name":"彰化縣鹿港鎮","county":"彰化縣","town":"鹿港鎮","lat":24.082936,"lon":120.438562,"type":"township"},{"name":"屏東縣新埤鄉","county":"屏東縣","town":"新埤鄉","lat":22.486829,"lon":120.584638,"type":"township"},{"name":"台東縣大武鄉","county":"台東縣","town":"大武鄉","lat":22.383682,"lon":120.899183,"type":"township"},{"name":"花蓮縣光復鄉","county":"花蓮縣","town":"光復鄉","lat":23.646683,"lon":121.435119,"type":"township"},{"name":"高雄市旗津區","county":"高雄市","town":"旗津區","lat":22.585732,"lon":120.289154,"type":"township"},{"name":"台中市烏日區","county":"台中市","town":"烏日區","lat":24.084003,"lon":120.629337,"type":"township"},{"name":"花蓮縣富里鄉","county":"花蓮縣","town":"富里鄉","lat":23.196824,"lon":121.298054,"type":"township"},{"name":"台南市南化區","county":"台南市","town":"南化區","lat":23.115196,"lon":120.544185,"type":"township"},{"name":"新北市平溪區","county":"新北市","town":"平溪區","lat":25.026185,"lon":121.757862,"type":"township"},{"name":"嘉義縣六腳鄉","county":"嘉義縣","town":"六腳鄉","lat":23.510269,"lon":120.271498,"type":"township"},{"name":"台中市大安區","county":"台中市","town":"大安區","lat":24.365169,"lon":120.591457,"type":"township"},{"name":"苗栗縣三義鄉","county":"苗栗縣","town":"三義鄉","lat":24.380897,"lon":120.770202,"type":"township"},{"name":"台北市萬華區","county":"台北市","town":"萬華區","lat":25.028697,"lon":121.497971,"type":"township"},{"name":"宜蘭縣蘇澳鎮","county":"宜蘭縣","town":"蘇澳鎮","lat":24.554809,"lon":121.83467,"type":"township"},{"name":"台南市仁德區","county":"台南市","town":"仁德區","lat":22.941369,"lon":120.241902,"type":"township"},{"name":"屏東縣琉球鄉","county":"屏東縣","town":"琉球鄉","lat":22.340062,"lon":120.371066,"type":"township"},{"name":"嘉義縣大埔鄉","county":"嘉義縣","town":"大埔鄉","lat":23.288558,"lon":120.589662,"type":"township"},{"name":"桃園縣大園鄉","county":"桃園縣","town":"大園鄉","lat":25.063944,"lon":121.211766,"type":"township"},{"name":"桃園縣龜山鄉","county":"桃園縣","town":"龜山鄉","lat":25.024275,"lon":121.356914,"type":"township"},{"name":"台南市北區","county":"台南市","town":"北區","lat":23.010178,"lon":120.206898,"type":"township"},{"name":"彰化縣芬園鄉","county":"彰化縣","town":"芬園鄉","lat":24.006361,"lon":120.629451,"type":"township"},{"name":"台南市官田區","county":"台南市","town":"官田區","lat":23.191044,"lon":120.348009,"type":"township"},{"name":"彰化縣彰化市","county":"彰化縣","town":"彰化市","lat":24.075396,"lon":120.569434,"type":"township"},{"name":"屏東縣獅子鄉","county":"屏東縣","town":"獅子鄉","lat":22.260932,"lon":120.735644,"type":"township"},{"name":"屏東縣東港鎮","county":"屏東縣","town":"東港鎮","lat":22.462719,"lon":120.475149,"type":"township"},{"name":"新竹縣湖口鄉","county":"新竹縣","town":"湖口鄉","lat":24.885751,"lon":121.051723,"type":"township"},{"name":"高雄市鼓山區(海)","county":"高雄市","town":"鼓山區(海)","lat":22.612373,"lon":120.281863,"type":"township"},{"name":"苗栗縣三灣鄉","county":"苗栗縣","town":"三灣鄉","lat":24.636079,"lon":120.952577,"type":"township"},{"name":"高雄市前金區","county":"高雄市","town":"前金區","lat":22.627047,"lon":120.29444,"type":"township"},{"name":"新北市三芝區","county":"新北市","town":"三芝區","lat":25.231702,"lon":121.515084,"type":"township"},{"name":"台東縣綠島鄉","county":"台東縣","town":"綠島鄉","lat":22.660269,"lon":121.490181,"type":"township"},{"name":"苗栗縣苗栗市","county":"苗栗縣","town":"苗栗市","lat":24.563901,"lon":120.811237,"type":"township"},{"name":"宜蘭縣冬山鄉","county":"宜蘭縣","town":"冬山鄉","lat":24.642259,"lon":121.760228,"type":"township"},{"name":"嘉義縣朴子市","county":"嘉義縣","town":"朴子市","lat":23.446165,"lon":120.253922,"type":"township"},{"name":"南投縣名間鄉","county":"南投縣","town":"名間鄉","lat":23.851149,"lon":120.67745,"type":"township"},{"name":"新北市三重區","county":"新北市","town":"三重區","lat":25.062923,"lon":121.487084,"type":"township"},{"name":"嘉義縣鹿草鄉","county":"嘉義縣","town":"鹿草鄉","lat":23.408178,"lon":120.304569,"type":"township"},{"name":"金門縣金湖鎮","county":"金門縣","town":"金湖鎮","lat":24.442636,"lon":118.417559,"type":"township"},{"name":"彰化縣埤頭鄉","county":"彰化縣","town":"埤頭鄉","lat":23.88241,"lon":120.46758,"type":"township"},{"name":"台中市豐原區","county":"台中市","town":"豐原區","lat":24.249978,"lon":120.73758,"type":"township"},{"name":"南投縣中寮鄉","county":"南投縣","town":"中寮鄉","lat":23.905971,"lon":120.785922,"type":"township"},{"name":"屏東縣內埔鄉","county":"屏東縣","town":"內埔鄉","lat":22.65124,"lon":120.588843,"type":"township"},{"name":"桃園縣蘆竹鄉","county":"桃園縣","town":"蘆竹鄉","lat":25.060835,"lon":121.283121,"type":"township"},{"name":"南投縣魚池鄉","county":"南投縣","town":"魚池鄉","lat":23.876095,"lon":120.925678,"type":"township"},{"name":"基隆市暖暖區","county":"基隆市","town":"暖暖區","lat":25.081083,"lon":121.74471,"type":"township"},{"name":"台中市西屯區","county":"台中市","town":"西屯區","lat":24.18316,"lon":120.627024,"type":"township"},{"name":"新竹縣尖石鄉","county":"新竹縣","town":"尖石鄉","lat":24.595067,"lon":121.281906,"type":"township"},{"name":"彰化縣芳苑鄉","county":"彰化縣","town":"芳苑鄉","lat":23.953862,"lon":120.353951,"type":"township"},{"name":"澎湖縣馬公市","county":"澎湖縣","town":"馬公市","lat":23.545602,"lon":119.586157,"type":"township"},{"name":"嘉義縣竹崎鄉","county":"嘉義縣","town":"竹崎鄉","lat":23.503826,"lon":120.596583,"type":"township"},{"name":"台南市南區(海)","county":"台南市","town":"南區(海)","lat":22.96661,"lon":120.160559,"type":"township"},{"name":"高雄市田寮區","county":"高雄市","town":"田寮區","lat":22.864006,"lon":120.396001,"type":"township"},{"name":"宜蘭縣宜蘭市","county":"宜蘭縣","town":"宜蘭市","lat":24.750324,"lon":121.756911,"type":"township"},{"name":"新竹縣竹北市","county":"新竹縣","town":"竹北市","lat":24.838247,"lon":120.994861,"type":"township"},{"name":"高雄市杉林區","county":"高雄市","town":"杉林區","lat":22.997018,"lon":120.562213,"type":"township"},{"name":"金門縣金沙鎮","county":"金門縣","town":"金沙鎮","lat":24.485218,"lon":118.423927,"type":"township"},{"name":"高雄市林園區","county":"高雄市","town":"林園區","lat":22.508198,"lon":120.399069,"type":"township"},{"name":"台中市北屯區","county":"台中市","town":"北屯區","lat":24.184074,"lon":120.736241,"type":"township"},{"name":"花蓮縣卓溪鄉","county":"花蓮縣","town":"卓溪鄉","lat":23.39077,"lon":121.180434,"type":"township"},{"name":"澎湖縣西嶼鄉","county":"澎湖縣","town":"西嶼鄉","lat":23.605931,"lon":119.509252,"type":"township"},{"name":"屏東縣竹田鄉","county":"屏東縣","town":"竹田鄉","lat":22.588624,"lon":120.526654,"type":"township"},{"name":"彰化縣大村鄉","county":"彰化縣","town":"大村鄉","lat":23.992159,"lon":120.558701,"type":"township"},{"name":"新北市坪林區","county":"新北市","town":"坪林區","lat":24.911086,"lon":121.724206,"type":"township"},{"name":"高雄市茄萣區","county":"高雄市","town":"茄萣區","lat":22.88247,"lon":120.198075,"type":"township"},{"name":"台東縣蘭嶼鄉","county":"台東縣","town":"蘭嶼鄉","lat":22.046265,"lon":121.550811,"type":"township"},{"name":"嘉義縣民雄鄉","county":"嘉義縣","town":"民雄鄉","lat":23.542617,"lon":120.444298,"type":"township"},{"name":"澎湖縣七美鄉","county":"澎湖縣","town":"七美鄉","lat":23.208419,"lon":119.429465,"type":"township"},{"name":"台中市清水鎮(海區","county":"台中市","town":"清水鎮(海區","lat":24.288193,"lon":120.517538,"type":"township"},{"name":"新竹縣寶山鄉","county":"新竹縣","town":"寶山鄉","lat":24.737058,"lon":120.999161,"type":"township"},{"name":"新北市貢寮區","county":"新北市","town":"貢寮區","lat":25.024982,"lon":121.918214,"type":"township"},{"name":"雲林縣北港鎮","county":"雲林縣","town":"北港鎮","lat":23.592253,"lon":120.294037,"type":"township"},{"name":"雲林縣台西鄉","county":"雲林縣","town":"台西鄉","lat":23.71607,"lon":120.205521,"type":"township"}]